{"Takalar,Indonesia": {"address": "Takalar, Canrego, Sulawesi Selatan, Indonesia", "latitude": -5.448701850000001, "longitude": 119.46782200740833}, "Barru,Indonesia": {"address": "Barru, Sulawesi Selatan, Indonesia", "latitude": -4.4337339, "longitude": 119.67782733955559}, "Maluku Utara,Indonesia": {"address": "Maluku Utara, Indonesia", "latitude": 0.6301215, "longitude": 127.9720219}, "Gowa,Indonesia": {"address": "Gowa, Sulawesi Selatan, Indonesia", "latitude": -5.32907165, "longitude": 119.76679028909466}, "Pangkajene dan Kepulauan,Indonesia": {"address": "Pangkajene dan Kepulauan, Sulawesi Selatan, Indonesia", "latitude": -4.75444955, "longitude": 119.58931052015694}, "Wajo,Indonesia": {"address": "Wajo, Nagekeo, Nusa Tenggara Timur, Indonesia", "latitude": -8.8364638, "longitude": 121.2436246}, "Luwu Utara,Indonesia": {"address": "Luwu Utara, Sulawesi Selatan, Indonesia", "latitude": -2.5951257, "longitude": 120.2562544}, "Maros,Indonesia": {"address": "Maros, Sulawesi Selatan, Indonesia", "latitude": -4.9655024, "longitude": 119.69284341781065}, "Bone,Indonesia": {"address": "Teluk Bone, Sulawesi Tenggara, Indonesia", "latitude": -3.1789084, "longitude": 120.6848131}, "Parepare,Indonesia": {"address": "Parepare, Sulawesi Selatan, Indonesia", "latitude": -4.0057055, "longitude": 119.6236101}, "Makassar,Indonesia": {"address": "Makassar, Sulawesi Selatan, Indonesia", "latitude": -5.1342962, "longitude": 119.4124282}, "Polewali Mandar,Indonesia": {"address": "Kantor Relawan TIK Indonesia Kabupaten Polewali Mandar, Takatidung, Sulawesi Barat, 91314, Indonesia", "latitude": -3.4173234, "longitude": 119.3195071521956}, "Sinjai,Indonesia": {"address": "Sinjai, Sulawesi Selatan, Indonesia", "latitude": -5.2006665000000005, "longitude": 120.14418652445201}, "Pinrang,Indonesia": {"address": "Pinrang, Sulawesi Selatan, 91211, Indonesia", "latitude": -3.7932568, "longitude": 119.6528692}, "Bantaeng,Indonesia": {"address": "Bantaeng, Sulawesi Selatan, Indonesia", "latitude": -5.47094485, "longitude": 119.9871679049646}, "Luwu Timur,Indonesia": {"address": "Jalan Andi Hatta, Luwu Timur, Kertaraharjo, Sulawesi Selatan, Indonesia", "latitude": -2.516425, "longitude": 120.8171774}}